Station,Line,Latitude,Longitude,Order,Is Junction
New Delhi,Orange Line,28.64374716,77.2229727,6,0
Shivaji Stadium,Orange Line,28.62894883,77.2115033,5,0
Dhaula Kuan,Orange Line,28.5918905,77.1617034,4,0
Delhi Aerocity,Orange Line,28.5487982,77.1208089,3,0
IGI Airport,Orange Line,28.55704321,77.08690454,2,0
Dwarka Sector 21,Orange Line,28.55219996,77.0583057,1,0
